{"type":"FeatureCollection", "features": [
{"type":"Feature","geometry":{"type":"Point","coordinates":[-84.30840884844484,33.760937809181186]},"properties":{"Name":"Pumkin","Lost_Date":"20221110","Age":"5","Weight":"10","Category":"Hamster"}},
{"type":"Feature","geometry":{"type":"Point","coordinates":[-84.23847938196484,33.862793101536454]},"properties":{"Name":"Snoopy","Lost_Date":"20240206","Age":"10","Weight":"15","Category":"Hamster"}},
{"type":"Feature","geometry":{"type":"Point","coordinates":[-84.39872670948026,33.641890240157444]},"properties":{"Name":"Orio","Lost_Date":"20240205","Age":"8","Weight":"15","Category":"Hamster"}},
{"type":"Feature","geometry":{"type":"Point","coordinates":[-84.16846640180779,33.73014104994634]},"properties":{"Name":"NIuNiu","Lost_Date":"20220205","Age":"7","Weight":"14","Category":"Hamster"}},
{"type":"Feature","geometry":{"type":"Point","coordinates":[-84.31708896450641,33.71040860529507]},"properties":{"Name":"Kate","Lost_Date":"20230205","Age":"6","Weight":"34","Category":"Hamster"}},
{"type":"Feature","geometry":{"type":"Point","coordinates":[-84.40430877777371,33.73014104994634]},"properties":{"Name":"Peaunt","Lost_Date":"20210205","Age":"5","Weight":"12","Category":"Hamster"}},
{"type":"Feature","geometry":{"type":"Point","coordinates":[-84.36283575658845,33.85713470412512]},"properties":{"Name":"BoBo","Lost_Date":"20200214","Age":"2","Weight":"20","Category":"Hamster"}},
{"type":"Feature","geometry":{"type":"Point","coordinates":[-84.24018289406904,33.80902318906303]},"properties":{"Name":"PoPo","Lost_Date":"20201201","Age":"9","Weight":"14","Category":"Hamster"}},
{"type":"Feature","geometry":{"type":"Point","coordinates":[-84.37987087583384,33.8910794659219]},"properties":{"Name":"DoDo","Lost_Date":"20220207","Age":"7","Weight":"13","Category":"Hamster"}},
{"type":"Feature","geometry":{"type":"Point","coordinates":[-84.44290081919777,33.9052191309964]},"properties":{"Name":"Abby","Lost_Date":"20190212","Age":"5","Weight":"14","Category":"Hamster"}},
{"type":"Feature","geometry":{"type":"Point","coordinates":[-84.4769710594852,33.75521946237674]},"properties":{"Name":"Ace","Lost_Date":"20240209","Age":"6","Weight":"15","Category":"Hamster"}},
{"type":"Feature","geometry":{"type":"Point","coordinates":[-84.45823242723729,33.695712877668605]},"properties":{"Name":"Ice","Lost_Date":"20210218","Age":"4","Weight":"16","Category":"Hamster"}},
{"type":"Feature","geometry":{"type":"Point","coordinates":[-84.38157438793806,33.695712877668605]},"properties":{"Name":"Aero","Lost_Date":"20240110","Age":"2","Weight":"17","Category":"Hamster"}},
{"type":"Feature","geometry":{"type":"Point","coordinates":[-84.30150932532875,33.65460092763376]},"properties":{"Name":"Abbott","Lost_Date":"20210110","Age":"7","Weight":"18","Category":"Hamster"}},
{"type":"Feature","geometry":{"type":"Point","coordinates":[-84.24870045369173,33.69287820164067]},"properties":{"Name":"Heaven","Lost_Date":"20240705","Age":"6","Weight":"19","Category":"Hamster"}},
{"type":"Feature","geometry":{"type":"Point","coordinates":[-84.29128825360183,33.83874232245027]},"properties":{"Name":"Gale","Lost_Date":"20240914","Age":"5","Weight":"20","Category":"Hamster"}},
{"type":"Feature","geometry":{"type":"Point","coordinates":[-84.32876551719936,33.939144760515866]},"properties":{"Name":"Lily","Lost_Date":"20240712","Age":"4","Weight":"21","Category":"Hamster"}},
{"type":"Feature","geometry":{"type":"Point","coordinates":[-84.22485128602952,33.76938161415467]},"properties":{"Name":"Lolly","Lost_Date":"20240402","Age":"5","Weight":"22","Category":"Hamster"}},
{"type":"Feature","geometry":{"type":"Point","coordinates":[-84.4358823501549,33.8484766299962]},"properties":{"Name":"Princess","Lost_Date":"20180830","Age":"4","Weight":"30","Category":"Hamster"}},
{"type":"Feature","geometry":{"type":"Point","coordinates":[-84.35302352701198,33.669006523289106]},"properties":{"Name":"Vivi","Lost_Date":"20190630","Age":"5","Weight":"35","Category":"Hamster"}},
{"type":"Feature","geometry":{"type":"Point","coordinates":[-84.48058250431966,33.654487487628494]},"properties":{"Name":"Zee","Lost_Date":"20190530","Age":"3","Weight":"32","Category":"Hamster"}},
{"type":"Feature","geometry":{"type":"Point","coordinates":[-84.2919696580842,33.80772097152847]},"properties":{"Name":"Boomer","Lost_Date":"20180330","Age":"6","Weight":"31","Category":"Hamster"}},
{"type":"Feature","geometry":{"type":"Point","coordinates":[-84.21678617906935,33.82304737819288]},"properties":{"Name":"Brownie","Lost_Date":"20190430","Age":"7","Weight":"35","Category":"Hamster"}}
]}